{
  "type": "FeatureCollection",
  "features": [
    {
      "type": "Feature",
      "geometry": {
        "type": "Point",
        "coordinates": [
          -0.118092,
          51.509865
        ]
      },
      "properties": {
        "state": "Alabama",
        "name": "Montgomery",
        "population": 199518
      }
    },
    {
      "type": "Feature",
      "geometry": {
        "type": "Point",
        "coordinates": [
          -0.001545,
          51.477928
        ]
      },
      "properties": {
        "state": "Alaska",
        "name": "Juneau",
        "population": 32094
      }
    },
    {
      "type": "Feature",
      "geometry": {
        "type": "Point",
        "coordinates": [
          -0.076132,
          51.508530
        ]
      },
      "properties": {
        "state": "Arizona",
        "name": "Phoenix",
        "population": 1626078
      }
    },
    {
      "type": "Feature",
      "geometry": {
        "type": "Point",
        "coordinates": [
          -0.116773,
          51.510357
        ]
      },
      "properties": {
        "state": "Arkansas",
        "name": "Little Rock",
        "population": 198606
      }
    },
    {
      "type": "Feature",
      "geometry": {
        "type": "Point",
        "coordinates": [
          -3.188267,
          55.953251
        ]
      },
      "properties": {
        "state": "California",
        "name": "Sacramento",
        "population": 501901
      }
    },
    {
      "type": "Feature",
      "geometry": {
        "type": "Point",
        "coordinates": [
          -2.244644,
          53.483959
        ]
      },
      "properties": {
        "state": "Colorado",
        "name": "Denver",
        "population": 704621
      }
    }
  ]
}
